ville_id,ville,lat,lon,temperature_moyenne,humidity_moyenne,weather_mode
22,Aix en Provence,43.5298424,5.4474738,27.688499999999998,43.65,ciel dégagé
23,Avignon,43.9492493,4.8059012,27.2505,48.575,ciel dégagé
28,Collioure,42.52505,3.0831554,26.3065,54.6,ciel dégagé
24,Uzes,44.0121279,4.4196718,25.875999999999998,52.75,ciel dégagé
21,Marseille,43.2961743,5.3699525,25.526,62.325,ciel dégagé
